[
  {
    "id": 9444337,
    "name": "조선대학교 미술대학",
    "address": "광주 동구 필문대로 309 (우)61452",
    "tel": "062-230-7801",
    "latitude": 35.1409667,
    "longitude": 126.9278321,
    "rank": -1.0,
    "category": 1
  },
  {
    "id": 10071641,
    "name": "의재미술관",
    "address": "광주 동구 증심사길 155 (우)61493",
    "tel": "062-222-3040",
    "latitude": 35.1290716,
    "longitude": 126.9654042,
    "rank": 3.5,
    "category": 1
  },
  {
    "id": 10339901,
    "name": "무등현대미술관",
    "address": "광주 동구 증심사길 9 (우)61493",
    "tel": "062-223-6677",
    "latitude": 35.1341663,
    "longitude": 126.9515418,
    "rank": -1.0,
    "category": 1
  },
  {
    "id": 12425634,
    "name": "의재미술관 문향정",
    "address": "광주 동구 증심사길 150-2 (우)61493",
    "tel": null,
    "latitude": 35.1293965,
    "longitude": 126.9642952,
    "rank": 4.0,
    "category": 1
  },
  {
    "id": 12685029,
    "name": "국윤미술관",
    "address": "광주 동구 의재로 82 (우)61496",
    "tel": "062-232-7335",
    "latitude": 35.1317976,
    "longitude": 126.9343643,
    "rank": -1.0,
    "category": 1
  },
  {
    "id": 19895455,
    "name": "우제길미술관",
    "address": "광주 동구 의재로 140-6 (우)61494",
    "tel": "062-224-6601",
    "latitude": 35.1317609,
    "longitude": 126.9408812,
    "rank": 1.0,
    "category": 1
  },
  {
    "id": 21975385,
    "name": "은암미술관",
    "address": "광주 동구 서석로85번길 8-12 2층 (우)61474",
    "tel": "062-226-6677",
    "latitude": 35.1500042,
    "longitude": 126.9184984,
    "rank": -1.0,
    "category": 1
  },
  {
    "id": 27387668,
    "name": "그대에게드림갤러리",
    "address": "광주 동구 예술길 33 (우)61474",
    "tel": null,
    "latitude": 35.1493177,
    "longitude": 126.9177381,
    "rank": -1.0,
    "category": 1
  },
  {
    "id": 339161196,
    "name": "성수미술관 광주동명점",
    "address": "광주 동구 동계천로 151-17 2층 (우)61434",
    "tel": "070-8750-1110",
    "latitude": 35.1495688,
    "longitude": 126.9235711,
    "rank": -1.0,
    "category": 1
  },
  {
    "id": 837425051,
    "name": "조선대학교 미술관",
    "address": "광주 동구 필문대로 309 (우)61452",
    "tel": "062-230-7832",
    "latitude": 35.1409667,
    "longitude": 126.9278321,
    "rank": 1.0,
    "category": 1
  },
  {
    "id": 841035429,
    "name": "드영 미술관",
    "address": "광주 동구 성촌길 6 (우)61493",
    "tel": "062-223-6515",
    "latitude": 35.1343516,
    "longitude": 126.9511784,
    "rank": 5.0,
    "category": 1
  },
  {
    "id": 883576897,
    "name": "카페미술관",
    "address": "광주 동구 문화전당로 29-1 1층 (우)61487",
    "tel": "062-233-2006",
    "latitude": 35.1451824,
    "longitude": 126.9169565,
    "rank": 4.0,
    "category": 1
  },
  {
    "id": 884240266,
    "name": "도남갤러리",
    "address": "광주 동구 동명로67번길 32-10 (우)61432",
    "tel": null,
    "latitude": 35.1535918,
    "longitude": 126.9239869,
    "rank": -1.0,
    "category": 1
  },
  {
    "id": 1412061904,
    "name": "산수미술관",
    "address": "광주 동구 밤실로 64-1 (우)61438",
    "tel": null,
    "latitude": 35.1532439,
    "longitude": 126.93442,
    "rank": -1.0,
    "category": 1
  },
  {
    "id": 1906613068,
    "name": "생각상자",
    "address": "광주 동구 남문로 628 (우)61498",
    "tel": null,
    "latitude": 35.1270803,
    "longitude": 126.9293073,
    "rank": -1.0,
    "category": 1
  },
  {
    "id": 1948567196,
    "name": "이강하미술관",
    "address": "광주 남구 양림동 285-1",
    "tel": null,
    "latitude": 35.1368797,
    "longitude": 126.9135209,
    "rank": 5.0,
    "category": 1
  },
  {
    "id": 2044380461,
    "name": "틈새미술관",
    "address": "광주 남구 용대로74번길 27 (우)61682",
    "tel": null,
    "latitude": 35.1210667,
    "longitude": 126.9181693,
    "rank": -1.0,
    "category": 1
  },
  {
    "id": 2045473349,
    "name": "박구환갤러리",
    "address": "광주 남구 서서평길 26-10 (우)61640",
    "tel": null,
    "latitude": 35.1405231,
    "longitude": 126.9128109,
    "rank": -1.0,
    "category": 1
  }
]
