[
  {
    "id": 2052160515,
    "name": "리안",
    "address": "광주 광산구 신가번영로34번길 39 (우)62311",
    "tel": null,
    "latitude": "35.1795532",
    "longitude": "126.8240026",
    "rank": 4.0,
    "category": 3
  },
  {
    "id": 1224291683,
    "name": "서민주당 쌍촌점",
    "address": "광주 서구 상무오월로15번길 28-22 1층 (우)61966",
    "tel": null,
    "latitude": "35.1574537",
    "longitude": "126.860127",
    "rank": 4.0,
    "category": 3
  },
  {
    "id": 1701111878,
    "name": "삼순이치킨닭발",
    "address": "광주 남구 난지실1길 7 (우)61655",
    "tel": null,
    "latitude": "35.1362533",
    "longitude": "126.8962416",
    "rank": 4.0,
    "category": 3
  },
  {
    "id": 9431506,
    "name": "창평국밥",
    "address": "광주 동구 학소로 132-1 (우)61462",
    "tel": "062-225-8090",
    "latitude": "35.1313495",
    "longitude": "126.9301535",
    "rank": 4.0,
    "category": 3
  },
  {
    "id": 1133379483,
    "name": "무애",
    "address": "광주 서구 상무평화로 128-1 (우)61964",
    "tel": "062-671-4477",
    "latitude": "35.1492748",
    "longitude": "126.8504998",
    "rank": 4.0,
    "category": 3
  },
  {
    "id": 763366284,
    "name": "가마솥순대국밥",
    "address": "광주 광산구 사암로106번길 90 (우)62374",
    "tel": "062-941-7627",
    "latitude": "35.1534573",
    "longitude": "126.8101891",
    "rank": 4.0,
    "category": 3
  },
  {
    "id": 10962785,
    "name": "효창기사식당",
    "address": "광주 광산구 도천남길 9 (우)62244",
    "tel": "062-959-3930",
    "latitude": "35.2085547",
    "longitude": "126.8146424",
    "rank": 4.0,
    "category": 3
  },
  {
    "id": 8175423,
    "name": "거북커피숍",
    "address": "광주 서구 무진대로 904 (우)61937",
    "tel": null,
    "latitude": "35.1597624",
    "longitude": "126.878159",
    "rank": 4.0,
    "category": 3
  },
  {
    "id": 14614238,
    "name": "임꺽정식육식당",
    "address": "광주 광산구 월계로118번길 6 (우)62266",
    "tel": "062-971-2267",
    "latitude": "35.2132722",
    "longitude": "126.8361183",
    "rank": 4.0,
    "category": 3
  },
  {
    "id": 9890620,
    "name": "원조 옛날할매순대",
    "address": "광주 북구 독립로402번길 9 (우)61215",
    "tel": "062-523-2126",
    "latitude": "35.1661708",
    "longitude": "126.9149918",
    "rank": 4.0,
    "category": 3
  },
  {
    "id": 19850653,
    "name": "궁중한방족발앤란주",
    "address": "광주 광산구 비아로 14 (우)62237",
    "tel": "062-951-5418",
    "latitude": "35.2203633",
    "longitude": "126.8210889",
    "rank": 4.0,
    "category": 3
  },
  {
    "id": 21085697,
    "name": "수연오돌뼈",
    "address": "광주 광산구 장신로50번길 16 (우)62225",
    "tel": "062-972-4650",
    "latitude": "35.1901156",
    "longitude": "126.8134654",
    "rank": 4.0,
    "category": 3
  },
  {
    "id": 882428958,
    "name": "카페써니힐",
    "address": "전남 장성군 남면 마령로 22-36 (우)57250",
    "tel": null,
    "latitude": "35.248722",
    "longitude": "126.7683322",
    "rank": 4.0,
    "category": 3
  },
  {
    "id": 12977861,
    "name": "돈치킨 광주운암점",
    "address": "광주 북구 북문대로 154 (우)61102",
    "tel": null,
    "latitude": "35.1825531",
    "longitude": "126.8705092",
    "rank": 4.0,
    "category": 3
  },
  {
    "id": 8336370,
    "name": "맥시칸치킨 대주점",
    "address": "광주 북구 면앙로121번길 62 (우)61170",
    "tel": null,
    "latitude": "35.1797499",
    "longitude": "126.9243851",
    "rank": 4.0,
    "category": 3
  },
  {
    "id": 1280042331,
    "name": "남도분식",
    "address": "광주 서구 무진대로 932 신세계백화점 지하 1층 (우)61937",
    "tel": null,
    "latitude": "35.160455",
    "longitude": "126.8803443",
    "rank": 4.0,
    "category": 3
  },
  {
    "id": 283578324,
    "name": "람빵마트",
    "address": "광주 광산구 비아로12번길 22 2층 (우)62238",
    "tel": null,
    "latitude": "35.2212816",
    "longitude": "126.8212558",
    "rank": 4.0,
    "category": 3
  },
  {
    "id": 1079399056,
    "name": "맛자랑계절포차",
    "address": "광주 광산구 왕버들로252번길 46 (우)62250",
    "tel": "062-954-0892",
    "latitude": "35.1948382",
    "longitude": "126.8319776",
    "rank": 4.0,
    "category": 3
  },
  {
    "id": 26872555,
    "name": "얼음골왕곱배기냉면",
    "address": "광주 광산구 월곡반월로32번길 5 1층 (우)62352",
    "tel": null,
    "latitude": "35.1681883",
    "longitude": "126.8108234",
    "rank": 4.0,
    "category": 3
  },
  {
    "id": 214302619,
    "name": "다민",
    "address": "광주 서구 화개1로78번길 13 (우)62014",
    "tel": "062-652-0071",
    "latitude": "35.1314873",
    "longitude": "126.8546335",
    "rank": 4.0,
    "category": 3
  }
]
