[
  {
    "id": 7987506,
    "name": "CGV 광주첨단",
    "address": "광주 광산구 임방울대로826번길 29-31 2층 (우)62279",
    "tel": "1544-1122",
    "latitude": "35.2163475",
    "longitude": "126.8484716",
    "rank": 4.0,
    "category": 2
  },
  {
    "id": 11962401,
    "name": "메가박스 전대",
    "address": "광주 북구 우치로 60 (우)61207",
    "tel": "1544-0070",
    "latitude": "35.1725979",
    "longitude": "126.9103958",
    "rank": 4.0,
    "category": 2
  },
  {
    "id": 10373666,
    "name": "라인극장",
    "address": "광주 동구 제봉로212번길 2-8 (우)61426",
    "tel": "062-224-6201",
    "latitude": "35.1543866",
    "longitude": "126.9131383",
    "rank": 4.0,
    "category": 2
  },
  {
    "id": 561497996,
    "name": "롯데시네마 광주광산",
    "address": "광주 광산구 무진대로 272-8 오렌지파크 3층 (우)62364",
    "tel": "1544-8855",
    "latitude": "35.160179",
    "longitude": "126.8074857",
    "rank": 4.0,
    "category": 2
  },
  {
    "id": 1206022110,
    "name": "에이스DVD영화관",
    "address": "광주 북구 호동로15번길 14 (우)61189",
    "tel": null,
    "latitude": "35.1757946",
    "longitude": "126.9124457",
    "rank": 4.0,
    "category": 2
  },
  {
    "id": 22810698,
    "name": "롯데시네마 충장로",
    "address": "광주 동구 충장로안길 12 (우)61483",
    "tel": "1544-8855",
    "latitude": "35.1480779",
    "longitude": "126.9124473",
    "rank": 4.0,
    "category": 2
  },
  {
    "id": 7999530,
    "name": "CGV 광주상무",
    "address": "광주 서구 시청로 67 프리미엄아울렛 6층 (우)61949",
    "tel": "1544-1122",
    "latitude": "35.154201",
    "longitude": "126.8488302",
    "rank": 4.0,
    "category": 2
  },
  {
    "id": 189041115,
    "name": "콜롬버스영화관비디오감상실",
    "address": "광주 북구 우치로100번길 10-4 (우)61189",
    "tel": "062-268-9995",
    "latitude": "35.1761897",
    "longitude": "126.9107695",
    "rank": 4.0,
    "category": 2
  },
  {
    "id": 1564877972,
    "name": "롯데시네마 상무(2022년10월예정)",
    "address": "광주 서구 시청로20번길 2 (우)61964",
    "tel": null,
    "latitude": "35.1500389",
    "longitude": "126.8499009",
    "rank": 4.0,
    "category": 2
  },
  {
    "id": 9786216,
    "name": "디지털 영화관",
    "address": "광주 광산구 첨단중앙로182번길 24 (우)62274",
    "tel": "062-971-1014",
    "latitude": "35.2216741",
    "longitude": "126.8419784",
    "rank": 4.0,
    "category": 2
  },
  {
    "id": 8538270,
    "name": "광주자동차극장",
    "address": "광주 북구 생용동 90",
    "tel": "062-575-5717",
    "latitude": "35.2204568",
    "longitude": "126.9002268",
    "rank": 4.0,
    "category": 2
  },
  {
    "id": 21805775,
    "name": "CGV 광주용봉점",
    "address": "광주 북구 문화소통로 170 하미스포렉스 (우)61173",
    "tel": "1544-1122",
    "latitude": "35.1828175",
    "longitude": "126.9098171",
    "rank": 4.0,
    "category": 2
  },
  {
    "id": 268554041,
    "name": "CGV 광주충장로",
    "address": "광주 동구 중앙로 163 NC웨이브 11층 (우)61480",
    "tel": "1544-1122",
    "latitude": "35.1487041",
    "longitude": "126.9110058",
    "rank": 4.0,
    "category": 2
  },
  {
    "id": 13055371,
    "name": "메가박스 광주상무",
    "address": "광주 서구 시청로60번길 21-6 (우)61948",
    "tel": "1544-0070",
    "latitude": "35.1541921",
    "longitude": "126.8522417",
    "rank": 4.0,
    "category": 2
  },
  {
    "id": 7992113,
    "name": "CGV 광주터미널",
    "address": "광주 서구 무진대로 904 유스퀘어 2~6층 (우)61937",
    "tel": "1544-1122",
    "latitude": "35.1608757",
    "longitude": "126.877732",
    "rank": 4.0,
    "category": 2
  },
  {
    "id": 10810649,
    "name": "메가박스 광주하남",
    "address": "광주 광산구 풍영철길로 15 (우)62355",
    "tel": "1544-0070",
    "latitude": "35.1628683",
    "longitude": "126.8095232",
    "rank": 4.0,
    "category": 2
  },
  {
    "id": 366232349,
    "name": "메가박스 컴포트 광주상무",
    "address": "광주 서구 시청로60번길 21-9 (우)61948",
    "tel": "1544-0070",
    "latitude": "35.1545865",
    "longitude": "126.8517247",
    "rank": 4.0,
    "category": 2
  },
  {
    "id": 23479894,
    "name": "매가맥스DVD영화관",
    "address": "광주 북구 우치로100번길 15 (우)61189",
    "tel": "062-268-3133",
    "latitude": "35.1765319",
    "longitude": "126.911136",
    "rank": 4.0,
    "category": 2
  },
  {
    "id": 10360868,
    "name": "롯데시네마 광주",
    "address": "광주 동구 독립로 268 9층 (우)61470",
    "tel": "1544-8855",
    "latitude": "35.1545115",
    "longitude": "126.910079",
    "rank": 4.0,
    "category": 2
  },
  {
    "id": 970613077,
    "name": "CGV 광주금남로",
    "address": "광주 동구 중앙로160번길 16-7 부로타워 2층 (우)61484",
    "tel": "1544-1122",
    "latitude": "35.1467713",
    "longitude": "126.9125705",
    "rank": 4.0,
    "category": 2
  }
]
